"city_id","city_name","m_city_id","city_image1","city_image2","city_image3","country_id","city_description","latitude","longitude","deleted"
"1","Adams Peak","0","adamspeak.jpg","adamspeak.jpg","adamspeak.jpg","2","Adam's Peak standing 7,360 ft. (2,243 meters) high. This is the country''s holiest mountain. Its name derives from a claim by the early Muslims that it is the place where Adam first set foot on earth, thus indirectly claiming that Sri Lanka is the original Garden of Eden. However, the more popular name is ''Sripada'' or the sacred foot print, in the belief that Buddha''s foot print is found At the summit. The ideal climb should be at night so as to reach the top early morning and see the almost supernatural spectacle of the magnified triangular shadow of the peak, superimposed on the countryside at dawn.
","6.8096429","80.4993882","0"
"2","Ahangama","0",,,,"2",,"5.9923437","80.3572869","0"
"3","Ahungalla","0",,,,"2","The resort is very self-contained and is close to Galle and Hikkaduwa.","6.3140615","80.0422025","0"
"4","Aluthgama","0",,,,"2","Aluthgama is a picturesque fishing village with colorful local markets which has slowly developed from a sleepy wayside hamlet into quite a bustling town with a plethora of shopping.","6.4372237","79.9969681","0"
"5","Aluvihare","0",,,,"2","Visit the Aluvihare Temple. It was here, in the 2nd century B.C. That around 500 devoted monks committed to write the Buddha''s scriptures which is known as ""Tripitaka"".","7.4982222","80.6238127","0"
"6","Ambalangoda","0",,,,"2","Ambalangoda is a charming seaside town on the south-western coast. It is the home of the mask carvers. These colorful masks are used by dancers performing exorcistic rituals and folk dances. There is also an old Dutch Church.","6.247261","80.055364","0"
"7","Ambepussa ","0",,,,"2","It is a popular rest-stop en route to Kandy and the Ancient Cities areas.","7.24148","80.2111602","0"
"8","Ampara","0",,,,"2",,"7.2962304","81.6770303","0"
"9","Anamaduwa","0",,,,"2",,"7.8769623","80.0120973","0"
"10","Anuradhapura","0",,,,"2","Anuradhapura is the first ancient capital of Sri Lanka from 3rd Century BC to 11th Century AD. At its height, Anuradhapura was one of the greatest cities of its age, functioning as the island""s centre of both temporal and spiritual power, dotted with dozens of monasteries populated by as many as 10,000 monks - one of the greatest monastic cities the world has ever seen. The most extensive of all the ancient cities, Anuradhapura is a UNESCO world heritage site.","8.3351518","80.4030257","0"
"11","Arugambay","0",,,,"2","Arugam Bay, which was totally devastated in the 2004 Tsunami, is a sleepy fishing village on the East Coast. It''s best claim to fame is that it is known to be one of the top ten surfing beaches in the world, and it is the venue for a number of international surfing tournaments.","6.8480767","81.8373794","0"
"12","Aukana","0",,,,"2","""The Aukana Buddha statue beyond doubt is the most magnificent, undamaged statue in Sri Lanka. It was built in the reign of King Dhatusena in the 5th century and is 39 ft (12 meters) high. The Name """"Aukana"""" means """"Sun-eating"""".","8.010765","80.513108","0"
"13","Aukana Maho","0",,,,"2",,"8.010765","80.513108","0"
"14","Avissawella","0",,,,"2",,"8.010765","80.513108","0"
"15","Badulla","0",,,,"2","Easily the most interesting building in Badulla is the eighteenth century Katarahama Devale,in the town center between King Street and Lower Street. It''s very Kandyan in style: the main shrine consists of a long narrow wooden structure, decorated with a faded, possibly Kandyan-era painting of a perahera.","6.9887916","81.0590172","0"
"16","Balapitiya","0",,,,"2","The village of Ambalangoda is the starting point of interesting boat safaris along the Madu Ganga, a good place to spot water monitors and a wide array of birdlife, including myriad colorful kingfishers.","6.2778854","80.0462338","0"
"18","Bandarawela","0",,,,"2","Midway between Ella and Haputale, lies the lovely little town of Bandarawela.","6.8364582","80.9949833","0"
"19","Batticaloa","0",,,,"2","The town is surrounded by water on three sides, and the constantly shifting views of land, lagoon and ocean lend Batticloa an interesting-if disorienting -character.It''s a pleasant enough place. Batticaloa was the first Sri Lankan stronghold of the Dutch, who constructed the town''s solid-looking Fort, which stands some 200m behind the large public library at the west end of the town center. The hulking and rather dour exterior walls are well preserved, whilst inside an old colonial warehouse and various modern buildings are crammed together cheek by jowl.There''s a grand  view of the lagoon from the far side of the fort. Around 35km north of Batticaloa lie the adjacent beaches of Kalkudah and Passekudah: two magnificent arcs of fine white sand, separated by a slender headland on which sits Kalkudah village. But actual beaches are still beautiful, and offer good swimming and calm, safe water. The beaches are popular both among locals and foreigners.","7.7340001","81.6784811","0"
"20","Belihuloya","0",,,,"2","Around 30km west of Haputale,the pleasantly soporific little town of BELIHUL OYA lies in pretty wooded scenery at the foot of the hill country-a strenuous route leads from here up to World''s End. The town is also the nearest jumping off point for the Bambarakanda Falls.","6.7186961","80.7714093","0"
"21","Bentota","0",,,,"2","This is the best-established package-holiday destination on the island. It offers a further clutch of package resorts plus an outstanding selection of more up market places. The beach divides into two areas. At the north end, facing Aluthgama lies """"Paradise Island""""(as it's popular known), a narrow spit of land beautifully sandwiched between the choppy breakers of the Indian Ocean and the calm waters of the Bentota lagoon. It provides the setting for the island''s biggest range of water sports of, along with interesting boat trips up the Bentota river. The attractive southern end of Bentota beach comprises a wide and tranquil swathe of sand that''s home to one of the island''s finest clusters of top-end hotels.","6.425604","80.0036927","0"
"22","Beragala","0",,,,"2",,"6.7618688","80.9175252","0"
"23","Beruwala","0",,,,"2","Beruwala is Sri Lanka''s resort destination par excellence.","6.4741968","79.9976109","0"
"24","Bolgoda","0",,,,"2",,"6.7072056","79.9729747","0"
"25","Buduruwagala","0",,,,"2","Just south of Wellawaya lies the magical archeological site of Buduruwagala, located in a patch of beautifully unspoilt dry-zone forest, dotted with rocky outcrops and populated by abundant birds and butterflies. The site is home to a series of seven figures carved in low relief into the face of a large rock out-crop. The figures are some of the largest in the island, and are thought to date from the 10th century.","6.68453","81.079088","0"
"26","Bulathsinhala","0",,,,"2",,"6.6478768","80.1799392","0"
"27","Bundala","0",,,,"2","Around 15km east of Hambantota, Bundala National park is one of Sri Lanka""""s foremost destinations for birdwatchers, protecting an important area of coastal wetland famous for it""""s abundant aquatic birdlife, as well as being home to a significant populations of elephants, crocadiles, turtles and other fauna, including the occasional leopard. The park stretches along the coast for around 20km, enclosing five shallow and brackish lagoons. A total of 197 bird species have been recorded here.Bundala is also home to 32 species of mammals, including leopards, sloth bears,civets,mongoose and giant squirrels, as well as rabbits.","5.7173558","81.4434235","0"
"28","Chilaw","0",,,,"2","Small but lively, it''s home to a big fish market and is dominated by the-eye catching, orange pink St.Mary''s Cathedral. The real reason for visiting Chilaw, however, is the Munnesvaram Temple, 4km to the east of town, one of the four most important pilgrimage centers. Its origins are popularly claimed to date back to the mythical era of the Ramayana, and legend states that Vishnu himself worshiped here. The original temple was destroyed by the Portuguese, and present building dates from the British era. The best time to visit for the evening puja, held around 5pm, when the whole place comes alive with pilgrims, drumming and temple ceremonies. A lively local festival is celebrated here each year in either August or September, with fire walking.","7.5719677","79.799755","0"
"29","Colombo","0","colombo1.jpg","gangaramaya2.jpg","gangaramaya3.jpg","2","Enjoy a city tour of Colombo which is the largest city and former administrative capital of Sri Lanka and is a busy and vibrant city with a mixture of modern life and remnants of a bygone colonial era. Due to its large harbor and its strategic position along the East-West sea trade routes, Colombo was known to ancient traders 2,000 years ago. However it was only made the Capital of the island when Sri Lanka was ceded to the British Empire in 1815. The main city is home to a majority of the Sri Lanka""""s corporate offices, restaurants and entertainment venues. On this tour you will visit many of the historical, religious and commercial sites of colombo including the historic and bustling Fort and Pettah, the elite residential Cinnamon Gardens, the Galle face Green, Viharamahadevi Park and much more.","6.927079","79.861243","0"
"30","Dambulla","0","badulla.png",,,"2","Dambulla  rock temple was built by king Walagambahu in the 1st century B.C. and is a UNESCO world heritage site. It is the most impressive of Sri Lanka""s many cave temples. The complex of five caves with over 2000 sq. meters of painted walls and ceilings is the largest area of paintings found in the world. It contains over 150 images of the Buddha of which the largest is the colossal figure carved out of granite rock and spanning 14 meters.","7.8812108","80.6995584","0"
"31","Dehiwela","0",,,,"2",,"6.8358685","79.8789075","0"
"32","Deniyaya","0",,,,"2",,"6.3420423","80.5552769","0"
"33","Dickoya","0",,,,"2",,"6.8748966","80.6026661","0"
"34","Dickwella","0",,,,"2","There is a Buddhist temple at Wevurukannala with a massive Buddha statue built in the 1950''s. The other local attraction is the Hummanaya or Blow-hole, where especially urging the south-west monsoon, the sea shoots up to a height of about 10 meters through narrow fissures in the rock.","5.9718626","80.6960895","0"
"35","Dimbulagoda","0",,,,"2",,"7.8666667","81.1166667","0"
"36","Diyatalawa","0",,,,"2","Diyatalawa is pretty hill station town in the tea country. It is home to the Military Training School and also the Surveyors'' training centre. The Fox Hill motor racing track is also located here.","6.8061881","80.9570073","0"
"37","Dondra","0",,,,"2","Dondra is known as Devi Nuwara, or """"City of the Gods"""", the town was formerly home to a greater temple dedicated to Vishnu, one of the most magnificent on the island until it was destroyed by the Portuguese in 1588.However one ancient shrine, the Galge, survived.It''s a small, plain structure thought to date back to the 7th century AD, making it the oldest stone building in Sri Lanka. One of the south''s major festivals, the Devi Nuwara Perahera, is held at the temple every year on the Esala poya day (early August) at the same time as the great Kandy Esala Perahera.
Just over a kilometer south of town, you will see a lighthouse which marks the southernmost point in Sri Lanka.Built in 1889; the lighthouse stands 50m high and is sometimes open to visitors: you may be allowed inside to climb up the winding staircase to the top, from where there are sweeping views up and down the coast. South of here, you see nothing but sea between you and Antarctica, over ten thousand miles distant.","5.929887","80.5898963","0"
"38","Eduruella","0",,,,"2",,"6.6186684","80.6714964","0"
"39","Ella","0",,,,"2","It's the closest thing to an English country village you''ll find in Sri Lanka, enjoying a pleasantly temperate climate and offering some good walking. The village enjoys one of the finest views in Sri Lanka, past the towering bulk of Ella rock and through a cleft in the hills-the so-called Ella Gap-to the plains below. Ella is famous in Sri Lankan folklore for its Ramayana connections: according to one tradition, the demon king Rawana brought the captive Sita here and hid her away in a cave couple of kilometers outside the present-day village.Rawana''s name is now memorialized in the names of various guest houses, as well as in the Rawana Ella Falls, which plunge magnificently down a series of rock faces 6km from Ella.

20 minutes from Ella is Demodera, the home of the famous Demodera Loop Railway, an engineering feat achieved by the British when they were ruling the country.","6.865309","81.047347","0"
"40","Embilipitiya","0",,,,"2",,"6.3150414","80.8596324","0"
"41","Galle","0",,,,"2","The old part of the city within the Dutch Fort built in the 17th century has been declared a World Heritage site by UNESCO. A walk on the ramparts from Point Utrecht bastion to Flag Rock bastion will give you an excellent view of the ancient harbor which was know as Tar shish in the Bible. We will pass the District Court and the original entrance to the Fort enroute to the Dutch Reformed Church built in the 17th century. The New Town to the north of the Fort was badly affected by the tsunami in 2004 and is the home of the famous International cricket stadium which has been re-built.","6.053519","80.220977","0"
"42","Gal Oya","0",,,,"2","Gal Oya National Park lies some 50km inland from the coast, in a little-visited corner of the island west of the regional capital of Ampara.The centerpiece of the park is the vast Senanayake Samudra,one of the largest lakes in Sri Lanka,and the tours of the park are usually made-uniquely in Sri Lanka-by boat. As usual, elephants are the main draw, with herds of up to 150 visiting the park during their annual peregrinations. Elephant-spotting is best from March to July.","7.228508","81.471839","0"
"43","Gampaha","0",,,,"2",,"7.0814226","80.0123131","0"
"44","Giritale","0",,,,"2","Giritale serves as a good base to the Ancient Cities area, particularly Polonnaruwa, Sigiriya and Dambulla and is also very close to the Minneriya and Kaudulla National Parks. The three main hotels have excellent views over the man-made lake.","7.997114","80.927945","0"
"45","Habarana","0",,,,"2","Habarana was a village in the jungle. It has now expanded into a small town as a result of tourism. It serves as a hub to all the Ancient Cities in the Cultural Triangle - Anuradhapua, Polonnaruwa, Sigiriya, Dambulla and Kandy.","8.0326212","80.7534214","0"
"46","Hakgala Garden","0",,,,"2","HAKGALA GARDENS lie beneath the towering Hakgala Rock some 10km southeast of Nuwara Eliya, with majestic views across the hills of Uva province. The gardens were first established in 1861 to grow """"cinchona"""", a source of the anti-malarial drug quinine, and were later expanded to include a wide range of foreign species. They are also now well known, at least amongst dedicated horticulturalists, for their roses. 

The gardens sprawl up the steep hillside, ranging from the anodyne ornamental areas around the entrance to the far wilder and more interesting forests up the hill-the best views are from the steps and path that lead through the azalea garden up to a little pavilion. The wooded portions of the gardens include many majestic Monterey cypresses from California, plus fine old cedars, a section of enormous tree ferns, stands of Japanese camphor, and pines and eucalpyts.The garden is also one of the best places in the island to spot endemic montane bird species.","6.925305","80.821862","0"
"47","Hambantota","0",,,,"2","Hambantota claims to fame as the salt capital of Sri Lanka. The pretty little harbor is Hambantota''s best feature, and beyond along the denuded coast to the grand, saw-tooth hills around Kataragama away in the distance are beautiful sights.","6.1412373","81.1166457","0"
"48","Hanwella","0",,,,"2",,"6.8915635","80.0852257","0"
"49","Haputale","0",,,,"2","HAPUTALE is one of the most spectacularly situated of all Sri Lankan towns, perched on a ridge top at the southern edge of the hills of the country with bird''s-eye views in both directions-south to the plains and coast, and inland across the jagged lines of hills which recede into the distance towards the high hill country. ""The town itself is a small busy but fairly humdrum little commercial center with a mainly Tamil population, though the mist which frequently blankets the place adds a pleasingly mysterious touch to the workday markets and shops which fill the center. As with Ella, the principal pleasure of a stay in Haputale is the chance to get out and walk in the surrounding hills. Specific sights around town include the tea factory at Dambatenne, the evocative old country mansion of Adisham and the impressive Diyalumi Falls.""
","6.7710527","80.9517288","0"
"50","Hatton","0",,,,"2","Hatton is located two hours drive from Nuwara Eliya on the southern approach to the latter","6.9006514","80.5917228","0"
"51","Henarathgoda","0",,,,"2",,"7.099303","79.985708","0"
"52","Hikkaduwa","0",,,,"2","Situated 2 1/2 hours south of Colombo on the way to Galle, Hikkaduwa is the place for under-water delights.  It is the site of the famed coral gardens.  Hire a glass bottom boat and explore the fantasies under your feet. Hikkaduwa is also well-known as a happening place in terms of restaurants and a throbbing nightlife scene.","6.127397","80.1183667","0"
"53","Hiriwaduna Village","0",,,,"2",,"8.0215379","80.7435573","0"
"54","Horton Plains","0",,,,"2","One hour drive from Nuwara Eliya.
Perched on the very edge of the hill country midway between Nuwara Eliya and Haputale,Horton Plains Natural Park covers a wild stretch of bleak, high altitude moorland bounded at its southern edge of the hill country, including the famous ''World End"""", where the escarpment falls sheer for the best part of a kilometer to the lowlands below.
You will feel the cool, wet climate which has fostered the growth of a distinctive range of flora, including various rhododendron bamboos, tree ferns and many endemic species of plants, making the Plains an area of great biological value.
The Plains'' wildlife attraction are relatively modest. Leopards still visit the park, but one has to be incredibly luckily to see one. The parks most visible residents are its herds of deer and bear-faced monkeys.

The plains are also one of the best places in the island for bird watching and an excellent places to see Montana endemics such as the dull-blue flycatcher; bush warbler, whistling thrush, yellow-eared bulbul, as well as orange minarets.
","6.811306","80.787941","0"
"55","Induruwa","0",,,,"2","The atmosphere hereabouts is deeply somnolent, although if you get bored there are a couple of nearby attractions.","6.3768885","80.0174682","0"
"56","Inginiyagala","0",,,,"2",,"7.2163928","81.5440679","0"
"57","Isurimuniya","0",,,,"2",,NULL,NULL,"0"
"58","Jaffna","0",,,,"2","""The agricultural hinterland of Jaffna Town-and the source of much of it''s former prosperity-is the Jaffna Peninsula, narrow but fertile arc of land which adds a delicate flourish to the northern tip of Sri Lanka. The peninsula is host to a low-key but varied collection of sights, ranging from a string of impressive temples and a few pristine beaches to more unlikely attraction such as miniature desert and miracle-working hot spring.""
","9.6699868","80.0284348","0"
"59","Kalametiya","0",,,,"2",,"6.0920588","80.943204","0"
"60","Kalawana","0",,,,"2",,"6.5307244","80.3950739","0"
"61","Kalkudawa","0",,,,"2",,"8.017698","80.655178","0"
"62","Kalpitiya","0",,,,"2",,"8.2291658","79.762668","0"
"63","Kalutara","0",,,,"2","""It''s one of the west coast''s largest settlements, but the long stretch of beach north of town remains reasonably unspoilt,dotted with a string of top-end hotels which make a decent first or last stop on a tour of the island. Kalutara announces its presence via the immense white dagoba of the Gangatilaka Vihara, immediately south of the long bridge across the Kalu Ganga.""","6.5874488","79.976746","0"
"64","Kandalama ","0",,,,"2","It came into prominence due to the controversy surrounding the building of a luxury hotel in the jungle overlooking the Kandalama reservoir. Kandalama can also serve as a base to visit the Cultural Triangle area (Polonnaruwa, Anuradhapura, Sigiriya, Dambulla and Kandy). It also happens to be an excellent bird-watching venue. It is also close to the Wasgamuwa National Park which is famous for its elephants.","7.8910552","80.7002879","0"
"65","Kandanagedara","0",,,,"2",,"7.3527781","80.2077941","0"
"66","Kandy","0",,,,"2","Enjoy a sightseeing tour of Kandy which is a UNESCO world heritage site. The historic city about 480m above sea level surrounded by mountains was known to Sri Lankan as Kanda Uda Rata, which means the hill country. Kandy was home to Sri Lanka''s last independent Kingdom, which survived two centuries of colonial incursion before finally falling to the British at the beginning of the nineteenth century. Visit the Temple of the tooth, The royal Botanical Gardens, the Peradeniya University campus and catch a panoramic view of the picturesque town from Upper lake Drive. Early evening, you will visit a Kandyan Dance performance and be treated to a spectacular fire walking finale. Kandy is also famous for it''s shopping, gems and jewellery, handicrafts, batiks, silks ect. And you will have the opportunity of browsing to your heart""""s content.","7.290572","80.633726","0"
"67","Kankesanturai","0",,,,"2",,"9.8089536","80.0428741","0"
"68","Kataragama","0",,,,"2","The most important of the town''s various shrines is dedicated to the God Kataragama.Kataragama is easily visited as a day trip from Tissa,but staying the night means you can enjoy the evening puja in a leisurely manner.Kataragama Festival, held around the Esala Poya day in late July or early August. The festival is famous for the varying forms of physical mortification with which some pilgrims express their devotion to Kataragama.","6.4144279","81.327332","0"
"69","Katunayake","0",,,,"2",,"7.180155","79.884252","0"
"70","Kaudulla ","0",,,,"2",,"8.15738","80.915243","0"
"71","Kegalle","0",,,,"2",,"7.2534746","80.3457212","0"
"72","Kelaniya","0",,,,"2","10km east of Fort lies Colombo''s most important Buddhist shrine the Kelaniya Raja Maha Vihara - the Buddha himself is said to have visited on the last of his three visits to the island. The temple is the focus of the extravagant two-day Duruthu Perahera celebrations every January.","6.9718966","79.9220854","0"
"73","Kiribathgoda","0",,,,"2",,"6.9780407","79.9270585","0"
"74","Kiriella","0",,,,"2",,"6.743793","80.243916","0"
"75","Kirinda","0",,,,"2",,"6.2232832","81.3328814","0"
"76","Kitulgala","0",,,,"2","The village of Kitulgala is set about halfway along the spectacular road which descends from Hatton down to the lowlands to the Avissawella.The scenery is particularly dramatic hereabouts, with sheer-sided, forest-covered hills plunging down to the wild waters of the Kelani Ganga.The stretch of this river around Kitulgala provides the site for the best """"whitewater rafting"""" in Sri Lanka, with grade three rapids some 5km upriver from the village. Kitulgala''s other claim is to fame is that it provided the location for David Lean''s classic 1957 film """"Bridge on the river Kwai"".","6.9915608","80.4199218","0"
"77","Kitulgala Rafting","0",,,,"2",,"6.989784","80.427088","0"
"78","Knuckles ","0",,,,"2","Knuckles Range covers a rugged and still largely untouched area of great natural beauty and biodiversity. The steeply shelving mountain terrian, reaching 1863m at its highest point, includes stands of rare dwarf cloudforest, and is home to leopard, various species of deer, monkeys and giant squirrels. The areas of range above 1000m have recently declared a World Heritage conservation Area.","7.3999978","80.8","0"
"79","Koggala","0",,,,"2","The town is home to one of the island's more rewarding museums,of the famous Sinhalese writer Martin Wickramasinghe,Koggala lagoon and also Free Trade Zone.","6.0026693","80.3314762","0"
"80","Kollupitiya","0",,,,"2",,"6.9149753","79.8507558","0"
"81","Kosgoda","0",,,,"2",,"6.3374677","80.0309006","0"
"82","Kotmale","0",,,,"2",,"7.0203976","80.5891907","0"
"83","Kottawa","0",,,,"2",,"6.8396872","79.9643224","0"
"84","Kotugoda","0",,,,"2",,"7.1234043","79.9245635","0"
"85","Kukuleganga","0",,,,"2",,"6.582917","80.233874","0"
"86","Kuliyapitiya","0",,,,"2",,"7.4733916","80.0461829","0"
"87","Kumana","0",,,,"2",,"6.57296","81.669253","0"
"88","Kurunegala","0",,,,"2","""Kunuregala is an important commercial center. Its main attractions are the breezy Kurunegala Tank and the huge bare rock outcrops which surround the town. The town also sits on a major junction on the roads between Colombo, Dambulla, Anuradhapura and Kandy.""","7.4806204","80.3577804","0"
"89","Laahugala ","0",,,,"2",,"6.91388","81.756825","0"
"90","Medirigiriya","0",,,,"2","Visit the Medirigiriya temple, famous for its 7th century Vatadage Temple which is on top of a low rocky point. There are three concentric rows of pillars, making a total of 68, surrounding four large seated Buddha facing the four directions.","8.1433826","80.9721998","0"
"91","Maduru Oya ","0",,,,"2",,"7.5760643","81.191454","0"
"92","Mahiyanganaya","0",,,,"2","Around 7km further east from Hasalaka, the small town of Mahiyangana is famous in Buddhist legend as the first of the three places in Sri Lanka which the Buddha himself is traditionally said to have visited.","7.3326222","80.9967256","0"
"93","Maligawila","0",,,,"2","""The remote village of Maligawila is home to two giant standing Buddhist statues, fashioned out of crystalline limestone.""
","6.724599","81.354243","0"
"94","Mannar","0",,,,"2",,"8.9958062","79.8856258","0"
"95","Marawila","0",,,,"2","20km north of Negombo, the strongly Catholic village of Marawila has several large churches and produces good batiks-a trade introduced by the Dutch from Indonesia.","7.418526","79.8312161","0"
"96","Maskeliya","0",,,,"2",,"6.8328446","80.5718376","0"
"97","Matale","0",,,,"2","Visit a spice garden in Matale to see different spices for which Sri Lanka is famous for.Here, clients could see different spices and how some of these spices are grown and processed. Witness a Cookery demonstration.","7.4583363","80.6287049","0"
"98","Matara","0",,,,"2","The town is an important transport hub and a major center of commerce-a lively place given a youthful touch by the presence of students from Ruhunu University; 3km east of town.Matara preserves a few Dutch colonial buildings like the diminutive Star Fort, a quaint little hexagonal structure built by the Dutch. And also the Nilwala Ganga, a fine swathe of water, runs straight through the middle of the bustling town center. A few kilometers away, the attractively low-key beach side suburb of Polhena, quite strip of beach and good snorkeling, offers a convenient escape from the hustle and bustle of the town itself. The area around Matara boasts a couple of mildly interesting and little-visited sights, including the giant Buddha and unusual underground temple at Weherahena and the town of Dondra,whose slender lighthouse marks the island''s southernmost point.","5.9519922","80.550748","0"
"99","Medawachchiya","0",,,,"2",,"8.5436338","80.496414","0"
"100","Melsiripura","0",,,,"2",,"7.6434954","80.5088855","0"
"101","Mihintale","0",,,,"2","12km east of Anuradhapura, is famous as the place where Buddhism was introduced. The setting-with rocky hills linked by beautiful old flights of stone steps shaded by frangipani-trees is georgous.Mihintale can be tiring,however:there are 1850 steps, and if you want to see all the sights you'll have to climb almost every single one of them.","8.3506144","80.5054307","0"
"102","Minneriya National Park","0",,,,"2","Enjoy a Jeep Safari in the Minneriya National park. Its centerpiece is the large Minneriya Tank, and the park also boasts an unusually wide range of habitat types, from dry tropical forest to wetlands, grasslands and terrain previously used for slash-and-burn agriculture. For most visitors, the principal attraction here is elephants. Minneriya forms part of the elephant corridor which joins up with Kaudulla and Wasgomuwa national parks, and up to 200 of the beasts can be found here at certain times of year during their migrations between the various parks. Other mammals found in the park include sambur, spotted deer, sloth bears and leopards, and there""""s also a good chance of seeing macaque and purple-faced languor monkeys. In addition, an enormous number of birds have been spotted at Minneriya, including endemic species such as the Sri Lankan hanging parrot and the crimson-fronted barbet.","8.0078942","80.8392048","0"
"103","Mirissa","0",,,,"2","Tucked into the far eastern end of Weligama Bay, the picture-perfect swathe of sand at the village of Mirissa was formerly the island''s most famously ""undiscovered"" beach. Its beach remains one of the prettiest in the island, with a narrow strip of sand backed by dense palm trees which manage to camouflage all signs of human presence.","5.9505747","80.4647418","0"
"104","Monaragala","0",,,,"2","The small inland town of Monaragala is the jumping-off point for the huge Buddhist statues at Maligawila.","6.8746894","81.231734","0"
"105","Moratuwa","0",,,,"2",,"6.7674157","79.8882677","0"
"106","Mount Lavinia","0",,,,"2","South of Colombo, Mount Lavinia is an immediate city suburb and the beach was one of the better known even in Colonial times.  It lays along side a windswept headland jutting into the waters of the Indian Ocean.","6.8358686","79.8789075","0"
"107","Mulkirigala","0",,,,"2","Mulkirigala consists of a series of rock temples carved out of the face of a huge rock outcrop which rises sheer and seemingly impregnable for over 200m out of the surrounding palm forests;the temples date back to the third century BC.Arranged on four terraces, each temple contains a reclining Buddha and is richly decorated with wall paintings and other statues.","6.951997","79.918571","0"
"108","Muthurajawela","0",,,,"2","Around 15km south of Negombo, at the southern end of the Negombo lagoon and close to the northern edge of the airport, Muthurajawela comprises a considerable area of saltwater wetland which attracts an outstanding range of water-loving birds, including various species of colorful kingfishers, plus assorted herons, egrets ,moorhen, duck, painted stork and many others. You might also spot crocodiles and macaque monkeys, and the marshes are also home to rarely seen others, painted bats, slender Loris, fishing cats and mouse deer.","7.078886","79.853034","0"
"109","Nainamadama","0",,,,"2",,"7.3156954","79.8439728","0"
"110","Namaluyana","0",,,,"2",,"7.909795","80.57995","0"
"111","Nanu Oya","0",,,,"2",,"6.9408098","80.7420015","0"
"112","Narahenpita","0",,,,"2",,"6.9009353","79.8805457","0"
"113","Negombo","0",,,,"2","Negombo''s beach is very wide in places and also the heartland of Christian Sri Lanka, as borne out by the enormous churches and florid wayside catholic shrines scattered about the town and its environs. The Dutch made the town an important commercial center, building a canal, on which spices, particularly cinnamon, which grew profusely in the surrounding areas-where transported from the interior to the coast prior to being shipped abroad.","7.1894495","79.856942","0"
"114","Nilaveli","0",,,,"2","""10km north of Uppaveli, Nilaveli is the second of the Trincomalee area''s famous pair of beaches.""","8.6943902","81.1880636","0"
"115","Nonagama","0",,,,"2",,"6.1255843","80.9816894","0"
"116","Nuwara Eliya","0","download.jpg",,,"2","""Nuwara Eliya meaning """"the city of dawn"""" is the town at the highest elevation (about 2000m above sea level) in Sri Lanka and its tallest peak, Piduruthalagala (2555m) could be seen from here. The city, established by the British in the nineteenth century, and known as """"Little England"""" and is a popular holiday resort for Sri Lanka's & tourists due to its cool climate and quaint colonial feel with its little bungalows surrounded by hedgerows. Nuwara Eliya is also the heart of the tea country and you can visit a plantation and a factory en route here and witness how the famous """"Ceylon Tea"""" is brewed. About 1.5km away is Seetha Amman Temple, said to be built at the spot where Ravna held Sita captive, as related in the Ramayana. The small temple has a collection of statues, including a couple of Kali images.""
","6.954399","80.782401","0"
"117","Panadura","0",,,,"2",,"6.7284863","79.9296463","0"
"118","Pasikuda","0","pasi.webp","pasi.webp","pasi.webp","2",,"7.9268893","81.5638733","0"
"119","Pelmadulla","0",,,,"2",,"6.6416738","80.5278111","0"
"120","Peradeniya","0",,,,"2","Set 6km southwest of Kandy in a loop in the Mahaweli Ganga lie the expansive Peradeniya Botanical Gardens, the largest and finest gardens in Sri Lanka, covering almost 150 acres and stuffed with a bewildering variety of local and foreign tree and plant species","7.2658414","80.5984068","0"
"121","Pidurangala","0",,,,"2",,"7.955154","80.759803","0"
"122","Pinnewala","0","pi.png",,,"2","The Pinnewala Elephant Orphanage is one of Sri Lanka''s most popular tourist attractions. The orphanage''s population has now mushroomed to around 65, making it the worlds largest collection of captive elephants. The elephants here range in age from newborns to elderly matriarchs, and include orphaned and abandoned elephants, as well as those injured in the wild.","7.3030469","80.3875637","0"
"123","Polonnaruwa","0",,,,"2",,"7.9341133","81.005888","0"
"124","Pundaluoya","0",,,,"2",,"7.0118838","80.6603028","0"
"125","Pussellawa ","0",,,,"2",,"7.1068516","80.638568","0"
"126","Puttalam","0",,,,"2","Puttalam sits 50km from Chi law and near the southern end of the enormous Puttalam Lagoon, and is of interest mainly as a transit point or possibly as a base for visiting the recently reopened Wilpattu National Park.","8.0303961","79.8327393","0"
"127","Rajagiriya","0",,,,"2",,"6.9119147","79.8957133","0"
"128","Ramboda","0",,,,"2",,"7.0548721","80.6934249","0"
"129","Rathgama","0",,,,"2",,"6.0925859","80.1455483","0"
"130","Ratnapura","0",,,,"2","Nestled amongst verdant hills at the southwestern corner of the hill country, Ratnapura is famous for its precious stones.Rathnapura does have other attractions, such as; the town makes a possible base for visits to Sinharaja and Uda Walawe National Parks.","6.7167756","80.3701401","0"
"131","Ravana Fall","0",,,,"2",,"6.8408328","81.054444","0"
"132","Ritigala","0",,,,"2","""Ritigala is magical but enigmatic, while the setting deep in a totally undisturbed tract of thick forest lends an additional sense of mystery. North of Habarana, on the slopes of a densely wooded mountainside protected by the Ritigala Strict nature Reserve, lay the mysterious monastery of Ritigala.""
","8.116667","80.65","0"
"133","Seeduwa","0",,,,"2",,"7.1306188","79.881884","0"
"134","Sigiriya ","0","sigiriya.png",,,"2","Climb the 5th century Sigiriya Rock fortress which is a UNESCO world heritage site, built by King Kashyapa(477-495). The spectacular citadel of Sigiriya rises sheer and impregnable out of the plains of the dry zone. It is the country""s most memorable single attraction, a remarkable archeological site made unforgettable by its dramatic setting. The rock was the innermost stronghold of a 70 hectare fortifield town. A moat, rampart and extensive gardens including the renowned water gardens ring the base of the rock. Visit the world-renowned frescoes of the ''Heavenly Maidens'' of Sigiriya, which are in a sheltered pocket of the rock approached by a spiral stairway.","7.955154","80.759803","0"
"135","Sinharaja ","0",,,,"2","The last extensive tract of undisturbed lowland rainforest in Sri Lanka, Sinharaja is one of the island''s outstanding natural wonders and an ecological treasure-box on international significance. A staggering 830 of Sri Lanka''s endemic species of flora and fauna found here, including myriad birds, reptiles and insects, while no less than sixty percent of the reserve''s trees are endemic, too. Sinharaja stretches for almost 30km across the wet zone at the southern edges of the hill country, enveloping a series of switchback hills and valleys ranging in altitude from just 300m up to 1170m.","6.389722","80.501389","0"
"136","Siyambalanduwa","0",,,,"2",,"6.9071277","81.5541744","0"
"137","Somawathiya","0",,,,"2",,"8.166667","81.216667","0"
"138","Talaimannar","0",,,,"2",,"9.0862707","79.7335635","0"
"139","Tangalle","0",,,,"2","This is the south''s most beautiful stretches of coastline, Tangalle is the region''s more developed beach destinations. The area around Tangalle is also home to a number of rewarding attractions, including the Hoo-maniya blowhole, the giant Buddha and gaudy temple of Wewurukanala and the magnificent rock temples of Mulkirigala.In addition, the nearby beach at Rekawa is Sri Lanka''s premier site for turtle-watching, offering the nightly opportunity to see these majestic creatures drag themselves ashore to lay their eggs in the sand. Dedicated ornithologists might also fancy a trip to the little-visited Kalametiya Bird Sanctuary, home to a rich selection of marine bird life.","6.0231303","80.781806","0"
"140","Thalpe","0",,,,"2",,"6.0006084","80.2769918","0"
"141","Tissamaharama","0",,,,"2","""Beyond Bundala National Park the main highway turns away from the coast towards the town of Tissamaharama, one of the most pleasant towns in south. Tissa''s main attraction is as a base for trips to the nearby national parks of Yala and Bundala or the temple town of Kartaragama.""","6.2852471","81.286084","0"
"142","Udawalawe","0",,,,"2","Uda Walawe has developed into one of Sri Lanka''s most popular national parks mainly thanks to its large population of elephants. It""""s the best place in the island to see pachyderms in the wild. The park is beautifully situated just south of the hill country. There are around five hundred elephants here, alongside hundreds of buffaloes and you might also see macaque and languor monkeys, spotted deer, crocodiles and a variety of birds of prey.","6.473889","80.898611","0"
"143","Unawatuna","0",,,,"2","5km southeast of Galle, Unawatuna set snugly in a pretty semi-circular bay, picturesquely terminated by a dagoba on the rocky headland to the northwest, the beach remains idyllic, while the sheltered bay gives safe year -round swimming, and group of rocks 150m offshore further breaks up waves.","6.0122525","80.2543872","0"
"144","Uswetakeiyawa","0",,,,"2",,"7.0364695","79.8636684","0"
"145","Valaichchennai","0",,,,"2",,"7.9549637","81.9374435","0"
"146","Waikkal","0",,,,"2",,"7.2831535","79.8571996","0"
"147","Wasgamuwa","0",,,,"2","Wasgamuwa is one of the most unspoilt of all Sri Lanka''s national parks, enjoying an isolated position and being largely enclosed-and offered a measure of protection-by two large rivers, the Amban Ganga and Mahaweli Ganga.The park straddles the northeastern edge of the hill country, and ranges in elevation from over 500m to just 76m along the Mahaweli Ganga. The park features the usual cast of Sri Lankan fauna, including up to 150 elephants, plus somber and spotted deer,bufflao and rarely sighted leopards, sloth bears and fishing cats, plus 143 species of bird, including eight endemics.
","7.753242","80.920774","0"
"148","Waskaduwa","0",,,,"2",,"6.6063565","79.9642467","0"
"149","Watawala","0",,,,"2",,"6.9445324","80.539012","0"
"150","Wattala","0",,,,"2",,"6.9842408","79.8938195","0"
"151","Weligama","0",,,,"2","23km east of Unawatuna,the sleepy fishing town of Weligama meanders around a broad and beautiful bay, dotted with rocky outcrops and fringed with fine golden sand.It''s an attractive spot, and despite a decent choice of accommodation.","5.9743728","80.43161","0"
"152","Wellawatte","0",,,,"2",,"6.8738386","79.8699323","0"
"153","Wellawaya","0",,,,"2","The unexceptional little town of Wellawaya is an important transport hub and provides regular connections to Ella, Haputale and beyond.","6.733613","81.1037779","0"
"154","Wilpattu ","0",,,,"2","Some 25km north of Puttalam, Wilpattu National Park is the largest in Sri Lanka. An unusual feature of the park''s topography is the numerous villus: these look like lakes, attracting a range of water-birds and wildlife.","8.410556","80.051111","0"
"155","Yala","0",,,,"2","Yala National park is Sri Lanka""""s most visited wildlife reserve. Yala covers an area of 1260 square kilometers. The park""""s dry-zone landscape is strikingly beautiful and the park""""s wildlife has its own distinctive charm, with huddles of colorful painted storks perched on the incongruously conjoined sight of elephants marching sedately through the bush while rabbits scamper through the undergrowth. Leopards, sloth bears and elephants are the """"big 3"""" here although crocodiles, jackalls and the many variety of birds are also a huge draw to this park which is the largest national park in the country.
","6.57296","81.669253","0"
"156","Yapahuwa","0",,,,"2","Midway between Kurunegala and Anuradhapura lies the magnificent citadel of Yapahuwa.The site''s outstanding feature is the marvelous stone stairway, which climbs with Maya-like steepness up to the palace. Statues of elephants, makara toranas, dwarfs, goddesses and a pair of goggle-eyed stone lions flank the stairs, which are topped by a finely carved doorway and windows.","7.816298","80.311561","0"
"157","Pottuvil","0",,,,"2","Pottuvil
","6.871978","81.8313218","0"
"158","Trincomalee","0","t1.jpg","t2.jpg","Trinco.webp","2","Eastern Sri Lanka''s major town, Trincomalee has been celebrated since antiquity for its superlative deep-water harbour, one of the finest in Asia.
","8.5832093","81.2132167","0"
"161","Wadduwa","0",,,,"2","Kalutara''s fine stretch of beach extends north of the bridge all the way to the village of Wadduwa,some 8km away; it''s surprisingly unspoilt and quiet , given the proximity of Colombo.","6.6303175","79.9570242","0"
"163","Ambewela","0",,,,"2","Ambewela
","6.8791468","80.8132303","0"
"164","Airport (BIA)","0",,,,"2","Bandaranaike International Airport (named after one of the country''s Prime Ministers) is now being developed into a modern facility with Japanese assistance.","7.180155","79.884252","0"
"165","Aligala Caves","0",,,,"2","""The trek to the caves will take approximately 1 hour through the jungle. The caves date back to around 1st century BC. Some Brahmin inscriptions, frescoes and stone pillars are found around the cave in a relatively non-conserved environment. The rock formations around the caves are magnificent. Surrounding the caves are tall indigenous trees, which make a very picturesque Scene.",NULL,NULL,"0"
"166","Arankalle","0",,,,"2","Visit Arankele, which is a 6th century forest hermitage situated north of Kurunegala.
",NULL,NULL,"0"
"167","Bambarakanda","0",,,,"2","Bambarakanda Falls, whose three drops, with a total height of 241m, are the highest in Sri Lanka.","1.6056425","82.3445936","0"
"168","Colombo Zoo","0",,,,"2","Visit the Colombo zoological gardens where an excellent collection of animals, birds, reptiles and fish from Sri Lanka and the Indian sub-continent could be seen. Densely foliated and well landscaped this 11 acre site is among one of the first zoos to introduce an ''open concept''. The most famous attraction is the daily elephant show at 5.15 p.m, where elephants perform acrobatic maneuvers.","6.857087","79.873784","0"
"169","Dambadeniya","0",,,,"2","Visit Dambadeniya which was the capital of Sri Lanka for about 100 years in the 13th century. See the ruins of the former Temple of the Tooth Relic and a dagoba with a Watadage.","7.3712342","80.149641","0"
"170","Degaldoruwa Temple","0",,,,"2","The temple is built into a larger rock outcrop and consists of three small connected chambers: the first two-the digge and antechamber-are built outside the rock and topped by crumbling old wooden roofs, while the third, the main shrine, is hollowed out of the rock itself, and invisible from the outside. The digger has a few old wooden pillars and a couple of drums hanging from the rafters: it''s unusual in that it''s directly attached to the rest of the temple, rather than occupying a separate pavilion as is usually the case. Old wooden doors under a makara torana arch lead into the antechamber, which preserves a fine moonstone and a sequence of paintings showing scenes from the Jataka stories, painted in five vivid red panels.","7.304497","80.664077","0"
"171","Digana","0",,,,"2","Digana is a beautiful mountainous area which is home to the giant Victoria Dam constructed by the British. It is also home to the Victoria Golf Club, which has been hailed as one of the prettiest courses in the world. It was designed by Donald Steel, is 6190 meters long and a par 73 course, opened in 1999.","7.2986621","80.735178","0"
"172","Dimbulagala","0",,,,"2","Rising over 500m above the denuded surrounding plains, the rock is scored with hundred of caves created by Buddhist monks from the third century BC onwards.","7.8666667","81.1166667","0"
"173","Diyaluma Falls","0",,,,"2","The adventurous can clamber up a very steep path along the side of the falls all the way to the top, where there are a series of natural rock pools in which you can swim.","6.7316553","81.0312349","0"
"174","Dowa Temple","0",,,,"2","The small Dowa Temple is set in a secluded narrow wooded valley and boats a striking low-relief Buddha, carved into the rock face which overlooks the temple.It''s similar in style to the figures at Buduruwagala,and may represent Maitreya,the future Buddha of the Mahayana pantheon who also appears at Buduruwagala.","6.4772968","81.1309858","0"
"175","Dunhinda","0",,,,"2","Around 7km north of Badulla lay the majestic, 63-mater-high DUNHINDA FALLS reached via a beautiful drive from town, followed by a pleasant 1.5km scramble along a rocky little path during which you cross a wobbly, Indiana Jones-style suspension bridge. The falls themselves, fed by the Baddulla Oya,are the island''s seventh highest, but are most notable more for their sheer volume, spewing out an impressive quantity of water which creates great clouds of spray as it crashes into the pool below.","7.017587","81.063813","0"
"176","Elephant Safari - Habarana","0",,,,"2","You will have an once-in-a-lifetime experience of moving into the jungle on the back of an elephant. He or she will take you on the bund of a man-made reservoir and will cross the water to enter the jungle. You will see a lot of bird-life and if you're lucky, you might see crocodiles. You will get the opportunity to feed the elephant with bananas while you're seated on its back
","6.6186684","80.6714964","0"
"178","Embakke","0",,,,"2","Dating from the 14th century, the rustic little Embakke Devale,dedicated to Kataragama is, famous principally for the fine pavilion fronting the main shrine, with its intricately decorated wooden pillars-apparently brought here from another temple at Gampola.Each of the myriad pillars bears a different design, a marvelously carved assortment of peacocks, entwined swans,wrestlers,dragons,dancers,horsemen,soldiers and Bodhisatvas.One of the most famous panels depicts an elephant and lion fighting; another shows what looks curiously like a Habsburg double-headed  eagle.
","7.217936","80.567715","0"
"179","Esala Perahara","0",,,,"2","It is held over 7 days leading up to the full moon during the lunar month of Esala(July to August).The Randoli Perahara has become progressively more spectacular, building up to the last night, featuring a massive cast of participants including 50 or 60 brilliantly caparisoned elephants and thousands of drummers, dancers and acrobats walking on stilts, cracking whips ,swinging fire pots and carrying banners, while the replica casket of the Tooth Relic itself is carried on the back of the Maligawa Tusker elephant.","7.293179","80.640968","0"
"180","Gadaladeniya","0",,,,"2","This Buddhist Temple with a Hindu annexed is also constructed on top of a rocky outcrop and dates back to a similar period as Lankatilake Temple and the Embekke Devale. A moonstone marks the entrance to the main shrine.","7.217936","80.567715","0"
"181","Habarana City Tour","0",,,,"2","The large village of HABARANA has the geographical good fortune to sit on a major road junction almost perfectly equidistant between Polonnaruwa, Anuradhapura and Dambulla.And you could experience elephant rides around the attractive lake.","8.0326212","80.7534214","0"
"182","Panduwasnuwara","0",,,,"2","Visit Panduwasnuwara which is situated 12km west of the main road from Kurunegala to Puttalam, the royal adventurer who would later achieve lasting game as the greatest ruler of Polonnaruwa and the architect of that city''s transformation into one of the most splendid urban centers of medieval  Asia.
","6.7284863","79.9296463","0"
"183","Polhena","0",,,,"2","""A couple of kilometers west of Matara city center, the rambling beachside suburb of Polhena make a pleasant alternative to Matara proper. There''s good snorkeling here straight off the beach, with lot of colorful fish and small section of live coral.""
","5.9388572","80.5247699","0"
"184","Polonnaruwa","0","polonna.png",,,"2","""The ruined capital of Polonnaruwa is one of the undisputed highlights of the Cultural Triangle and is a UNESCO world heritage site. The heyday of the city in the twelfth century represented one of the high watermarks of early Sri Lankan civilization. Polonnaruwa""""s extensive and well-preserved remains, offer a fascinating snapshot of medieval Sri Lanka, including some of the island""""s finest monuments and it is compact enough to be thoroughly explored in 3 hours. The Gal Vihara, a collection of magnificent Buddha statues carved out of sheer rock is not to be missed and a prime example of the craftsmanship of that era.""","7.9341133","81.005888","0"
"186","Ridigama","0",,,,"2","The fascinating monastery of Ridi Vihara is a short drive westwards towards Kurunegala.The cave temple of Ridi Vihara is one of the Cultural Triangle''s most absorbing smaller sights.","7.5435709","80.4875565","0"
"187","Sasseruwa","0",,,,"2","Visit Sasseruwa, which is best known for its rough hewn Buddha image carved from a sheer rock face. The statue is about 3 feet shorter than the Aukana statue and less refined in style.","0","0","0"
"188","Hendala","0",,,,"2","Hendala is a one of the seemingly never-ending suburban towns dotting the main road from the airport to Colombo","7.099303","79.985708","0"
"189","Labookelie Tea Estate","0",,,,"2","It is set in gorgeous rolling countryside. The tea gardens here are much more photogenic, and the countryside much more unspoilt and the estate is well set up for visitors, with regular free factory tours and tasting.","7.024175","80.719275","0"
"190","Lankatilake","0",,,,"2","Climbing a steep hill and continuing for 500m through the edge of the village, you will see a pleasant spot, and at the end of the village you reach a gorgeous bo tree and paddy fields, with a huge rock outcrop to your right. Keep right here and continue over the brow of a hill, from where you''ll catch your first, magical sight of the Lankathilake Temple rising out of the tea plantations ahead. Lankathilake is perhaps the finest temple in the district: an imposing solid-looking structure built on a huge rock outcrop and painted a faint blue rather than the usual white. It was found in 1344, and its architecture is reminiscent of the solid, gedige-style stone temples of Polonnaruwa rather than the later and more decorative Kandyan-style wooden temples.","7.4574595","80.460974","0"
"191","Maduru Oya National Park","0",,,,"2","The huge and remote Maduru Oya National park is situated southeast from Polonnaruwa.The usual range of fauna can be seen in here: elephants, various species of monkeys and deer, abundant bird life, rare sloth bears and even rarer leopards.","7.5760643","81.191454","0"
"192","Mawanella.","0",,,,"2","Visit a spice garden in Mawanella to see the different spices, which Sri Lanka is famous for.  You will be shown different spices and the way some of these spices are grown and processed.","7.2492812","80.4483426","0"
"193","Nalanda","0",,,,"2","Visit Nalanda Gedige. Nalanda is considered to be in the exact centre of the island.  Nalanda Gedige is found here which was earlier known as the ""All-stone building"" in Sri Lanka, dating back to the 8th century.  It is one of the most remarkable examples of the amalgamation of Hindu and Buddhist architectures.","0","0","0"
"194","Pindurangala Cave Temple","0",,,,"2","A couple of kilometers north of Sigiriya, situated Pindurangala Cave Temple. The monastery here dates from the arrival of Kassapa. The main sight is a large reclining brick Buddha in the royal cave Temple itself.","7.955154","80.759803","0"
"195","Seetha Amman Temple","0",,,,"2","Held back along the main road towards Nuwara Eliya for about 1.5km to reach the Seetha Amman Temple, said to be built at the spot where Rawana held Sita captive, as related in the Ramayana-the strange circular depressions in the rock by the adjacent stream are supposed to be the footprints of Rawana''s elephant. The small temple boasts the usual gaudy collection of statues, including a couple of gruesome Kali images.","6.933222","80.810513","0"
"196","Tea Plantation","0",,,,"2","Visit a tea plantation and a tea factory, where the best tea in the world is produced. Here you could observe all about the process of manufacturing tea. You can also see how tea is graded. Taste a cup of pure Ceylon tea in the factory.","6.0231303","80.781806","0"
"197","Temple of the Tooth","0",,,,"2","Sri Lanka""s most important Buddhist shrine, the Temple of the Tooth, or Dalada Maligawa, sits on the lakeshore just east of the city center. You might prefer to go to one of the morning pujas. The main attraction of the pooja is the noisy drumming which precedes and accompanies the ceremony.","7.293179","80.640968","0"
"198","Udawattakele Trail","0",,,,"2","160 Acres of Tropical Rain Forest provide a heaven for fascinating birds, flowers and monkeys.","6.8403535","80.6150185","0"
"199","White Water Rafting","0",,,,"2","This thrilling adventure on the white water section of the Kelani River is suitable for amateurs as well as professionals alike.  During the run, you will experience the thrill of shooting rapids and euphoria of making it through.  The river''s clear water is born in the heart of the peak wilderness reserve and tumbles through a rocky gorge just above Kithulgala.  As the river widens, you will pass the scenic location used to film - ""Bridge over the river Kwai"" which was filmed in 1956, a good place to jump in for a refreshing swim.  On a clear day, you may even dive to see the remains of the actual bridge and the carriages used for the film (only for experienced divers with proper equipment).","0","0","0"
"217","Namunukula","0",,,,"2",,"6.9333333","81.1166667","0"
"218","Polhena ","0",NULL,NULL,NULL,"2",,"0","0","0"
"219","City Tour","0",,,,"2",,"0","0","0"
"220","Hanthana","0",,,,"194",,"0","0","0"
"221","Ginigathhena","0",,,,"2",,"0","0","0"
"222","Ambalantota","0",,,,"2",NULL,"0","0","0"
"223","Kalkudah","0",,,,"2",NULL,"0","0","0"
"224","Kamburugamuwa","0",,,,"2",NULL,"0","0","0"
"225","Thawalanthenna","0",,,,"2",NULL,"0","0","0"
"226","Talalla","0",NULL,NULL,NULL,"2",NULL,"5.9534956","80.62436630000002","0"
"227","Weerawila","0",NULL,NULL,NULL,"2",NULL,"0","0","0"
"228","Sevanagama ","0",NULL,NULL,NULL,"2",NULL,"0","0","0"
